[
  {
    "name": "Remy's Dog Park at Red Mountain Park",
    "city": "Birmingham",
    "state": "AL",
    "region": "South",
    "lat": 33.4569,
    "lon": -86.8316,
    "size_acres": 6,
    "amenities": ["Separate small-dog area", "Shaded trails", "Water fountains"],
    "fee": "Free",
    "website": "https://redmountainpark.org/remysdogpark/",
    "notes": "Large wooded dog park with natural-surface trails and multiple fenced paddocks inside Red Mountain Park."
  },
  {
    "name": "Connor's Bog Off-Leash Dog Park",
    "city": "Anchorage",
    "state": "AK",
    "region": "West",
    "lat": 61.1646,
    "lon": -149.9585,
    "size_acres": 196,
    "amenities": ["Multiple trail loops", "Water access", "Winter-friendly"],
    "fee": "Free",
    "website": "https://www.muni.org/Departments/parks/Pages/default.aspx",
    "notes": "Expansive off-leash area with groomed ski and walking trails in winter; moose sightings possible—stay alert."
  },
  {
    "name": "Cosmo Dog Park",
    "city": "Gilbert",
    "state": "AZ",
    "region": "West",
    "lat": 33.3318,
    "lon": -111.7696,
    "size_acres": 17,
    "amenities": ["Lighted play yards", "Lake for swimming", "Agility equipment"],
    "fee": "Free",
    "website": "https://www.gilbertaz.gov/departments/parks-and-recreation/parks/cosmo-dog-park",
    "notes": "One of the first municipal parks with a dedicated dog-swim lake and multiple shaded paddocks."
  },
  {
    "name": "Paws Park at Murray Park",
    "city": "Little Rock",
    "state": "AR",
    "region": "South",
    "lat": 34.7622,
    "lon": -92.3316,
    "size_acres": 2,
    "amenities": ["Double-gated entries", "Benches", "Lighting"],
    "fee": "Free",
    "website": "https://www.littlerock.gov/residents/parks-and-recreation/parks/paws-park/",
    "notes": "Fenced off-leash area with separate small dog zone inside James H. Penick Park (Murray Park)."
  },
  {
    "name": "Point Isabel Regional Shoreline Dog Park",
    "city": "Richmond",
    "state": "CA",
    "region": "West",
    "lat": 37.9086,
    "lon": -122.3237,
    "size_acres": 23,
    "amenities": ["Bay views", "Bayside Cafe", "Rinse stations"],
    "fee": "Free",
    "website": "https://www.ebparks.org/parks/point-isabel",
    "notes": "Waterfront trails and tidal access in one of the largest urban off-leash areas managed by East Bay Regional Park District."
  },
  {
    "name": "Cherry Creek State Park Off-Leash Area",
    "city": "Aurora",
    "state": "CO",
    "region": "West",
    "lat": 39.6404,
    "lon": -104.8289,
    "size_acres": 107,
    "amenities": ["Prairie trails", "Swim creek", "Restrooms nearby"],
    "fee": "Day-use fee",
    "website": "https://cpw.state.co.us/placestogo/parks/CherryCreek/Pages/DogOffLeashArea.aspx",
    "notes": "State park dog area requires a daily pass; offers 2-mile loop trails with seasonal water features."
  },
  {
    "name": "Southbury Dog Park",
    "city": "Southbury",
    "state": "CT",
    "region": "Northeast",
    "lat": 41.4594,
    "lon": -73.226,
    "size_acres": 14,
    "amenities": ["Wooded trails", "River access", "Picnic tables"],
    "fee": "Free",
    "website": "https://southbury-ct.org/dogpark",
    "notes": "Community-supported park on the Pomperaug River with open meadows and wooded walking paths."
  },
  {
    "name": "Carousel Farm Off-Leash Area",
    "city": "Wilmington",
    "state": "DE",
    "region": "Northeast",
    "lat": 39.7895,
    "lon": -75.6082,
    "size_acres": 30,
    "amenities": ["Open meadows", "Walking loops", "Portable restrooms"],
    "fee": "$5 seasonal tag recommended",
    "website": "https://www.newcastlede.gov/431/Carousel-Park-Equestrian-Center",
    "notes": "County-operated off-leash fields and wooded edges; annual dog tag supports maintenance."
  },
  {
    "name": "Bark Beach at North Shore Open Space Park",
    "city": "Miami Beach",
    "state": "FL",
    "region": "South",
    "lat": 25.8706,
    "lon": -80.1214,
    "size_acres": 1.5,
    "amenities": ["Ocean swimming", "Shade", "Weekend lifeguards"],
    "fee": "Free",
    "website": "https://www.miamibeachfl.gov/city-hall/parks-and-recreation/dog-parks/",
    "notes": "Leash-free beach hours Friday–Sunday evenings; check posted seasonal times for off-leash windows."
  },
  {
    "name": "Piedmont Park Dog Park",
    "city": "Atlanta",
    "state": "GA",
    "region": "South",
    "lat": 33.785,
    "lon": -84.372,
    "size_acres": 3,
    "amenities": ["Synthetic turf", "Night lighting", "Separate enclosures"],
    "fee": "Free",
    "website": "https://www.piedmontpark.org/dog-parks/",
    "notes": "Popular urban dog park near the Atlanta BeltLine with skyline views and year-round events."
  },
  {
    "name": "Hawaii Kai Dog Park",
    "city": "Honolulu",
    "state": "HI",
    "region": "West",
    "lat": 21.2867,
    "lon": -157.6904,
    "size_acres": 1.6,
    "amenities": ["Turf grass", "Shade sails", "Water spigots"],
    "fee": "Free",
    "website": "https://www.honolulu.gov/cms-dpr-menu/site-dpr-sitearticles/6747-hawaii-kai-dog-park.html",
    "notes": "City & county of Honolulu park with volunteer-led maintenance and views of Koko Head."
  },
  {
    "name": "Nampa Dog Park (Amity)",
    "city": "Nampa",
    "state": "ID",
    "region": "West",
    "lat": 43.5562,
    "lon": -116.5493,
    "size_acres": 6,
    "amenities": ["Large pond", "Walking trail", "Gazebos"],
    "fee": "Free",
    "website": "https://www.nampaparksandrecreation.org/parks-trails/dog-parks/",
    "notes": "City-built dog park with grassy areas, training hill, and dedicated swim pond."
  },
  {
    "name": "Montrose Dog Beach",
    "city": "Chicago",
    "state": "IL",
    "region": "Midwest",
    "lat": 41.9666,
    "lon": -87.6369,
    "size_acres": 3.9,
    "amenities": ["Lake Michigan access", "Dog wash", "Seasonal lifeguards"],
    "fee": "$10 DFA tag",
    "website": "https://www.montrosedogbeach.org/",
    "notes": "Chicago Park District off-leash swim beach; city DFA (Dog Friendly Area) tag required."
  },
  {
    "name": "Paul Ruster Bark Park",
    "city": "Indianapolis",
    "state": "IN",
    "region": "Midwest",
    "lat": 39.7813,
    "lon": -85.9591,
    "size_acres": 7,
    "amenities": ["Wood-chip surface", "Shade trees", "Small-dog area"],
    "fee": "Annual Indy Parks tag",
    "website": "https://www.indy.gov/activity/dog-parks",
    "notes": "Membership-based city dog park within Paul Ruster Park; day passes sold at the park office."
  },
  {
    "name": "Raccoon River Dog Park",
    "city": "West Des Moines",
    "state": "IA",
    "region": "Midwest",
    "lat": 41.5606,
    "lon": -93.7638,
    "size_acres": 12,
    "amenities": ["Prairie grasses", "Agility features", "Walking loop"],
    "fee": "$20 annual tag",
    "website": "https://www.wdm.iowa.gov/government/parks-recreation/parks-facilities/dog-park",
    "notes": "City-managed prairie-style dog park adjacent to Blue Heron Lake with 24-hour access for members."
  },
  {
    "name": "Shawnee Mission Park Off-Leash Area",
    "city": "Shawnee",
    "state": "KS",
    "region": "Midwest",
    "lat": 39.0094,
    "lon": -94.7947,
    "size_acres": 44,
    "amenities": ["Lake access", "Woodland trails", "Restrooms nearby"],
    "fee": "$5 daily or $25 annual tag",
    "website": "https://jcprd.com/Facilities/Facility/Details/Off-Leash-Area-7",
    "notes": "Johnson County Park & Recreation District permits off-leash exploration along the lake and prairie."
  },
  {
    "name": "E.P. \"Tom\" Sawyer State Park Dog Park",
    "city": "Louisville",
    "state": "KY",
    "region": "South",
    "lat": 38.2916,
    "lon": -85.5458,
    "size_acres": 5,
    "amenities": ["Fenced meadows", "Water spigots", "Shade trees"],
    "fee": "$30 annual pass",
    "website": "https://parks.ky.gov/louisville/parks/state-park/e-p-tom-sawyer-state-park",
    "notes": "Pass-only dog park managed by Kentucky State Parks; trails and agility obstacles rotate seasonally."
  },
  {
    "name": "NOLA City Bark",
    "city": "New Orleans",
    "state": "LA",
    "region": "South",
    "lat": 29.9934,
    "lon": -90.1067,
    "size_acres": 4.6,
    "amenities": ["Turf and gravel", "Shade pavilions", "Water play area"],
    "fee": "$60 annual tag",
    "website": "https://nolacitybark.org/",
    "notes": "Membership-supported dog park in City Park with key-card access and double-gated entries."
  },
  {
    "name": "Quarry Run Dog Park",
    "city": "Portland",
    "state": "ME",
    "region": "Northeast",
    "lat": 43.6844,
    "lon": -70.2505,
    "size_acres": 7,
    "amenities": ["Wooded hills", "Open fields", "Trail connections"],
    "fee": "Free",
    "website": "https://www.portlandmaine.gov/905/Dog-Parks",
    "notes": "Forest-like off-leash area reclaimed from a former quarry with year-round access."
  },
  {
    "name": "Downs Memorial Park Dog Beach",
    "city": "Pasadena",
    "state": "MD",
    "region": "South",
    "lat": 39.1112,
    "lon": -76.4517,
    "size_acres": 2,
    "amenities": ["Chesapeake Bay access", "Boardwalk", "Shade"],
    "fee": "$6 daily park entry",
    "website": "https://www.aacounty.org/departments/recreation-parks/parks/downs/",
    "notes": "County-run sandy swim beach for dogs on the Chesapeake Bay; check tide charts for best visit."
  },
  {
    "name": "Peter's Park Dog Run",
    "city": "Boston",
    "state": "MA",
    "region": "Northeast",
    "lat": 42.3413,
    "lon": -71.0642,
    "size_acres": 0.7,
    "amenities": ["K9 turf", "Night lighting", "Water bubblers"],
    "fee": "Free",
    "website": "https://southenddogpark.org/",
    "notes": "Community-funded off-leash area in Boston's South End with separate sections for shy dogs."
  },
  {
    "name": "Orion Oaks Dog Park",
    "city": "Lake Orion",
    "state": "MI",
    "region": "Midwest",
    "lat": 42.7391,
    "lon": -83.2202,
    "size_acres": 24,
    "amenities": ["Wooded trails", "Lake shoreline", "Agility area"],
    "fee": "$5 daily pass",
    "website": "https://www.oakgov.com/parks/parksandtrails/orion-oaks/",
    "notes": "Oakland County Parks pass required; includes 1-acre small dog area and 5 miles of trails."
  },
  {
    "name": "Minnehaha Off-Leash Recreation Area",
    "city": "Minneapolis",
    "state": "MN",
    "region": "Midwest",
    "lat": 44.9093,
    "lon": -93.2061,
    "size_acres": 6.6,
    "amenities": ["Mississippi River beach", "Wooded paths", "Picnic tables"],
    "fee": "$50 annual off-leash permit",
    "website": "https://www.minneapolisparks.org/parks__destinations/dog_parks/",
    "notes": "Off-leash permit from Minneapolis Park & Recreation Board required; scenic riverside setting."
  },
  {
    "name": "Tupelo Bark Park",
    "city": "Tupelo",
    "state": "MS",
    "region": "South",
    "lat": 34.2447,
    "lon": -88.6938,
    "size_acres": 3,
    "amenities": ["Walking trail", "Water stations", "Shade trees"],
    "fee": "Free",
    "website": "https://www.tupeloms.gov/parks-recreation/dog-park/",
    "notes": "City-run dog park with open lawn loops and benches near Veterans Memorial Park."
  },
  {
    "name": "Stephens Lake Park Dog Park",
    "city": "Columbia",
    "state": "MO",
    "region": "Midwest",
    "lat": 38.9485,
    "lon": -92.3165,
    "size_acres": 3,
    "amenities": ["Seasonal pond", "Shade pavilion", "Double-gated entry"],
    "fee": "Free",
    "website": "https://www.como.gov/parks/park/stephens-lake-park/",
    "notes": "Fenced grass dog park just south of Stephens Lake with adjacent walking loop."
  },
  {
    "name": "Snowfill Recreation Area Dog Park",
    "city": "Bozeman",
    "state": "MT",
    "region": "West",
    "lat": 45.7187,
    "lon": -111.0301,
    "size_acres": 37,
    "amenities": ["Hilly terrain", "Mountain views", "Winter plowing"],
    "fee": "Free",
    "website": "https://gallatincomt.virtualtownhall.net/parks-recreation/pages/dog-parks",
    "notes": "Expansive former landfill repurposed as an off-leash park with loop trails and picnic tables."
  },
  {
    "name": "Hanscom Dog Park",
    "city": "Omaha",
    "state": "NE",
    "region": "Midwest",
    "lat": 41.2346,
    "lon": -95.9676,
    "size_acres": 12,
    "amenities": ["Separate play yards", "Agility equipment", "Restrooms nearby"],
    "fee": "Free",
    "website": "https://parks.cityofomaha.org/dog-parks",
    "notes": "City of Omaha park with four fenced areas rotated for turf recovery."
  },
  {
    "name": "Barkin' Basin Dog Park at Wayne Bunker Park",
    "city": "Las Vegas",
    "state": "NV",
    "region": "West",
    "lat": 36.2278,
    "lon": -115.2637,
    "size_acres": 7.5,
    "amenities": ["Night lighting", "Dog bone benches", "Separate paddocks"],
    "fee": "Free",
    "website": "https://www.lasvegasnevada.gov/Residents/Parks-Facilities/Dog-Parks",
    "notes": "City-maintained desert landscape dog park with three fenced yards open daily until 10 p.m."
  },
  {
    "name": "Derry Dog Park",
    "city": "Derry",
    "state": "NH",
    "region": "Northeast",
    "lat": 42.8913,
    "lon": -71.3106,
    "size_acres": 4,
    "amenities": ["Wood chips", "Shelters", "Agility ramps"],
    "fee": "Free",
    "website": "https://www.derrynh.org/parks-recreation/pages/dog-park",
    "notes": "Volunteer-operated fenced dog park within Hoodkroft Country Club grounds."
  },
  {
    "name": "Freedom Barks Dog Park",
    "city": "Medford",
    "state": "NJ",
    "region": "Northeast",
    "lat": 39.857,
    "lon": -74.7919,
    "size_acres": 20,
    "amenities": ["Wooded sand trails", "Creek access", "Benches"],
    "fee": "Free",
    "website": "https://www.medfordtownship.com/index.asp?SEC=BF0C790B-3874-4DF8-BF0A-6D58D2E49485",
    "notes": "Largely natural-surface off-leash area carved through pitch-pine forests; maintained by volunteers."
  },
  {
    "name": "Frank S. Ortiz Dog Park",
    "city": "Santa Fe",
    "state": "NM",
    "region": "West",
    "lat": 35.7066,
    "lon": -105.9579,
    "size_acres": 135,
    "amenities": ["High desert trails", "Scenic overlooks", "Picnic tables"],
    "fee": "Free",
    "website": "https://www.santafenm.gov/dog_parks",
    "notes": "Extensive arroyo trails and scrubby hills on the northwest edge of Santa Fe with sunset views."
  },
  {
    "name": "Tompkins Square Dog Run",
    "city": "New York",
    "state": "NY",
    "region": "Northeast",
    "lat": 40.7264,
    "lon": -73.9819,
    "size_acres": 0.8,
    "amenities": ["K9 turf", "Sprinkler play", "Shade pergola"],
    "fee": "Free",
    "website": "https://www.tompkinssquaredogrun.com/",
    "notes": "Historic community dog run rebuilt with drainage-friendly surface and a dedicated small-dog corral."
  },
  {
    "name": "French Broad River Dog Park",
    "city": "Asheville",
    "state": "NC",
    "region": "South",
    "lat": 35.5828,
    "lon": -82.5745,
    "size_acres": 1.2,
    "amenities": ["River access", "Shade trees", "Wood chip surface"],
    "fee": "Free",
    "website": "https://www.ashevillenc.gov/service/dog-parks/",
    "notes": "City of Asheville dog park with gated riverfront entry and walking loop for leashed strolls."
  },
  {
    "name": "Dakota Bark Park",
    "city": "Minot",
    "state": "ND",
    "region": "Midwest",
    "lat": 48.215,
    "lon": -101.2865,
    "size_acres": 7,
    "amenities": ["Shelter", "Water spigot", "Agility obstacles"],
    "fee": "Free",
    "website": "https://www.minotnd.org/DocumentCenter/View/1217/Dog-Parks",
    "notes": "Community dog park featuring large and small dog areas with prairie grass and picnic tables."
  },
  {
    "name": "Scioto Audubon Dog Park",
    "city": "Columbus",
    "state": "OH",
    "region": "Midwest",
    "lat": 39.9496,
    "lon": -83.0024,
    "size_acres": 4,
    "amenities": ["Artifical turf mounds", "Agility course", "Drinking fountains"],
    "fee": "Free",
    "website": "https://ohiodnr.gov/about-odnr/news/media-center/featured-stories/scioto-audubon-dog-park",
    "notes": "Metro Parks facility with skyline views on the Scioto Riverfront just south of downtown."
  },
  {
    "name": "Edmond Dog Park at Bickham-Rudkin Park",
    "city": "Edmond",
    "state": "OK",
    "region": "South",
    "lat": 35.6267,
    "lon": -97.4576,
    "size_acres": 5,
    "amenities": ["Fishing pond", "Trails", "Separate small dog yard"],
    "fee": "Free",
    "website": "https://www.edmondok.gov/228/Dog-Park",
    "notes": "City park with three fenced play areas, benches, and a dog-friendly pond."
  },
  {
    "name": "Sellwood Riverfront Park Off-Leash Area",
    "city": "Portland",
    "state": "OR",
    "region": "West",
    "lat": 45.4598,
    "lon": -122.6664,
    "size_acres": 1.5,
    "amenities": ["Beach access", "Shade trees", "Seasonal restrooms"],
    "fee": "Free",
    "website": "https://www.portland.gov/parks/dog-parks",
    "notes": "Popular sandy beach on the Willamette River with off-leash access and floating log booms."
  },
  {
    "name": "Schuylkill River Park Dog Run",
    "city": "Philadelphia",
    "state": "PA",
    "region": "Northeast",
    "lat": 39.9441,
    "lon": -75.1795,
    "size_acres": 0.5,
    "amenities": ["Double-surface (turf/gravel)", "Hydration station", "LED lighting"],
    "fee": "Free",
    "website": "https://www.fosp.org/dog-run/",
    "notes": "Volunteer-supported Center City dog run along the Schuylkill Banks trail."
  },
  {
    "name": "Dexter Training Grounds Dog Park",
    "city": "Providence",
    "state": "RI",
    "region": "Northeast",
    "lat": 41.8173,
    "lon": -71.4401,
    "size_acres": 0.8,
    "amenities": ["Gravel surface", "Shade trees", "Water fountain"],
    "fee": "Free",
    "website": "https://www.providenceri.gov/parks-recreation/",
    "notes": "Historic park converted into a double-gated dog run maintained by the city and neighborhood group."
  },
  {
    "name": "James Island County Park Dog Park",
    "city": "Charleston",
    "state": "SC",
    "region": "South",
    "lat": 32.7176,
    "lon": -79.9584,
    "size_acres": 4,
    "amenities": ["Saltwater lake", "Dog wash", "Night lighting"],
    "fee": "$2 park admission",
    "website": "https://www.ccprc.com/1215/James-Island-County-Park",
    "notes": "County-run dog park with large lawn, shaded picnic area, and lake with dock for strong swimmers."
  },
  {
    "name": "Spencer Park Dog Park",
    "city": "Sioux Falls",
    "state": "SD",
    "region": "Midwest",
    "lat": 43.5251,
    "lon": -96.723,
    "size_acres": 10,
    "amenities": ["River overlooks", "Walking loop", "Shelters"],
    "fee": "Free",
    "website": "https://www.siouxfalls.gov/parks-recreation/parks/dog-parks",
    "notes": "City of Sioux Falls park with a large and small dog area plus scenic Big Sioux River views."
  },
  {
    "name": "Shelby Farms Park Off-Leash Dog Park",
    "city": "Memphis",
    "state": "TN",
    "region": "South",
    "lat": 35.1322,
    "lon": -89.8329,
    "size_acres": 120,
    "amenities": ["Wooded trails", "Lake for swimming", "Agility equipment"],
    "fee": "Free",
    "website": "https://www.shelbyfarmspark.org/outdoor-adventures/dog-park",
    "notes": "One of the largest urban off-leash areas in the country with multiple lakes and miles of natural-surface trails."
  },
  {
    "name": "Millie Bush Bark Park",
    "city": "Houston",
    "state": "TX",
    "region": "South",
    "lat": 29.7414,
    "lon": -95.663,
    "size_acres": 13,
    "amenities": ["Three ponds", "Wash stations", "Night lighting"],
    "fee": "Free",
    "website": "https://www.pct3.com/parks/millie-bush-dog-park",
    "notes": "Harris County Precinct 3 park with crushed granite paths and 1.3-mile perimeter trail."
  },
  {
    "name": "Tanner Park Off-Leash Area",
    "city": "Salt Lake City",
    "state": "UT",
    "region": "West",
    "lat": 40.7078,
    "lon": -111.798,
    "size_acres": 13,
    "amenities": ["Creek canyon", "Shaded trails", "Seasonal restrooms"],
    "fee": "Free",
    "website": "https://slco.org/parks-recreation/parks/tanner/",
    "notes": "City creek corridor with a mix of paved and natural-surface off-leash routes; snowshoe-friendly."
  },
  {
    "name": "Starr Farm Dog Park",
    "city": "Burlington",
    "state": "VT",
    "region": "Northeast",
    "lat": 44.5061,
    "lon": -73.2761,
    "size_acres": 1.5,
    "amenities": ["Lake Champlain views", "Shade", "Seasonal water"],
    "fee": "Free",
    "website": "https://enjoyburlington.com/place/starr-farm-park/",
    "notes": "City of Burlington dog park with open turf and glimpses of the lake; adjacent bike path."
  },
  {
    "name": "Shirlington Dog Park",
    "city": "Arlington",
    "state": "VA",
    "region": "South",
    "lat": 38.8417,
    "lon": -77.0864,
    "size_acres": 2,
    "amenities": ["Stream access", "Paved trail", "Night lighting"],
    "fee": "Free",
    "website": "https://parks.arlingtonva.us/locations/shirlington-dog-park/",
    "notes": "Linear dog park along Four Mile Run with paved walkway and community art."
  },
  {
    "name": "Warren G. Magnuson Park Off-Leash Area",
    "city": "Seattle",
    "state": "WA",
    "region": "West",
    "lat": 47.6787,
    "lon": -122.2564,
    "size_acres": 8.6,
    "amenities": ["Lake Washington beach", "Gravel trails", "Accessible paths"],
    "fee": "Free",
    "website": "https://www.seattle.gov/animalshelter/services/dog-off-leash-areas",
    "notes": "Seattle's largest fully fenced off-leash area with 0.5 miles of shoreline."
  },
  {
    "name": "Shaw Dog Park",
    "city": "Washington",
    "state": "DC",
    "region": "South",
    "lat": 38.9103,
    "lon": -77.0279,
    "size_acres": 0.7,
    "amenities": ["Artificial turf", "Night lighting", "Community events"],
    "fee": "Free",
    "website": "https://shawdogs.org/",
    "notes": "District-managed dog park with key volunteers and regular cleanup events near the Howard Theatre."
  },
  {
    "name": "Huntington Dog Park at Ritter Park",
    "city": "Huntington",
    "state": "WV",
    "region": "South",
    "lat": 38.405,
    "lon": -82.4391,
    "size_acres": 2,
    "amenities": ["Shade trees", "Gazebo", "Double gates"],
    "fee": "Free",
    "website": "https://www.cityofhuntington.com/residents/parks-and-recreation/",
    "notes": "City park with separate areas for large and small dogs adjacent to Ritter Park's walking trail."
  },
  {
    "name": "Granville Dog Exercise Area",
    "city": "Milwaukee",
    "state": "WI",
    "region": "Midwest",
    "lat": 43.1784,
    "lon": -88.0394,
    "size_acres": 10,
    "amenities": ["Wooded trails", "Prairie grasses", "Shelter"],
    "fee": "$10 annual Milwaukee County dog tag",
    "website": "https://county.milwaukee.gov/EN/Parks/Experience/Dog-Exercise-Areas",
    "notes": "Milwaukee County Parks off-leash area with a 10-acre mix of woods and open meadow."
  },
  {
    "name": "Morad Park Off-Leash Area",
    "city": "Casper",
    "state": "WY",
    "region": "West",
    "lat": 42.8328,
    "lon": -106.3573,
    "size_acres": 50,
    "amenities": ["North Platte River access", "Walking path", "Picnic tables"],
    "fee": "Free",
    "website": "https://www.casperwy.gov/government/departments/parks_recreation_and_public_facilities/parks/dog_parks",
    "notes": "Riverfront greenway with off-leash privileges and connections to the Platte River Trails system."
  }
]
